{
  "defaultStoreId": 1,
  "stores": [
    {
      "id": 1,
      "name": "ALDI Wien Mitte",
      "city": "Vienna",
      "country": "Austria",
      "flag": "🇦🇹",
      "address": "Landstraßer Hauptstr. 1, 1030 Wien",
      "lat": 48.2061,
      "lng": 16.3848,
      "grid_size": 9
    },
    {
      "id": 2,
      "name": "ALDI Budapest Deák",
      "city": "Budapest",
      "country": "Hungary",
      "flag": "🇭🇺",
      "address": "Deák Ferenc tér 3, 1052 Budapest",
      "lat": 47.4979,
      "lng": 19.0545,
      "grid_size": 9
    },
    {
      "id": 3,
      "name": "ALDI München Zentrum",
      "city": "Munich",
      "country": "Germany",
      "flag": "🇩🇪",
      "address": "Marienplatz 8, 80331 München",
      "lat": 48.1374,
      "lng": 11.5755,
      "grid_size": 9
    },
    {
      "id": 4,
      "name": "ALDI Berlin Mitte",
      "city": "Berlin",
      "country": "Germany",
      "flag": "🇩🇪",
      "address": "Alexanderplatz 5, 10178 Berlin",
      "lat": 52.5219,
      "lng": 13.4132,
      "grid_size": 9
    },
    {
      "id": 5,
      "name": "ALDI Zürich HB",
      "city": "Zurich",
      "country": "Switzerland",
      "flag": "🇨🇭",
      "address": "Bahnhofplatz 2, 8001 Zürich",
      "lat": 47.3779,
      "lng": 8.5403,
      "grid_size": 9
    }
  ]
}
